[
  {"name":"Juhu Beach","category":"beach","state":"Maharashtra","latitude":19.0988,"longitude":72.8267,"address":"Juhu, Mumbai, Maharashtra"},
  {"name":"Marine Drive Chowpatty Beach","category":"beach","state":"Maharashtra","latitude":18.9543,"longitude":72.8120,"address":"Marine Drive, Mumbai, Maharashtra"},
  {"name":"Baga Beach","category":"beach","state":"Goa","latitude":15.5529,"longitude":73.7517,"address":"Baga, North Goa, Goa"},
  {"name":"Calangute Beach","category":"beach","state":"Goa","latitude":15.5439,"longitude":73.7553,"address":"Calangute, North Goa, Goa"},
  {"name":"Anjuna Beach","category":"beach","state":"Goa","latitude":15.5873,"longitude":73.7434,"address":"Anjuna, North Goa, Goa"},
  {"name":"Vagator Beach","category":"beach","state":"Goa","latitude":15.5990,"longitude":73.7409,"address":"Vagator, North Goa, Goa"},
  {"name":"Palolem Beach","category":"beach","state":"Goa","latitude":15.0099,"longitude":74.0230,"address":"Palolem, South Goa, Goa"},
  {"name":"Colva Beach","category":"beach","state":"Goa","latitude":15.2780,"longitude":73.9120,"address":"Colva, South Goa, Goa"},
  {"name":"Miramar Beach","category":"beach","state":"Goa","latitude":15.4745,"longitude":73.8052,"address":"Panjim, North Goa, Goa"},
  {"name":"Kovalam Beach","category":"beach","state":"Kerala","latitude":8.4000,"longitude":76.9783,"address":"Kovalam, Thiruvananthapuram, Kerala"},
  {"name":"Varkala Beach","category":"beach","state":"Kerala","latitude":8.7379,"longitude":76.7083,"address":"Varkala, Thiruvananthapuram, Kerala"},
  {"name":"Marina Beach","category":"beach","state":"Tamil Nadu","latitude":13.0500,"longitude":80.2824,"address":"Marina, Chennai, Tamil Nadu"},
  {"name":"Elliot's Beach","category":"beach","state":"Tamil Nadu","latitude":13.0000,"longitude":80.2667,"address":"Besant Nagar, Chennai, Tamil Nadu"},
  {"name":"Rishikonda Beach","category":"beach","state":"Andhra Pradesh","latitude":17.7815,"longitude":83.3855,"address":"Visakhapatnam, Andhra Pradesh"},
  {"name":"RK Beach","category":"beach","state":"Andhra Pradesh","latitude":17.7191,"longitude":83.3334,"address":"Visakhapatnam, Andhra Pradesh"},
  {"name":"Puri Beach","category":"beach","state":"Odisha","latitude":19.8000,"longitude":85.8281,"address":"Puri, Odisha"},
  {"name":"Digha Beach","category":"beach","state":"West Bengal","latitude":21.6820,"longitude":87.5546,"address":"Digha, West Bengal"},
  {"name":"Mandarmani Beach","category":"beach","state":"West Bengal","latitude":21.6833,"longitude":87.7167,"address":"Mandarmani, West Bengal"},
  {"name":"Somnath Beach","category":"beach","state":"Gujarat","latitude":20.8903,"longitude":70.4012,"address":"Somnath, Gir Somnath, Gujarat"},
  {"name":"Diu Nagoa Beach","category":"beach","state":"Dadra and Nagar Haveli and Daman and Diu","latitude":20.7147,"longitude":70.9294,"address":"Diu, Daman and Diu"},
  {"name":"Kapu Beach","category":"beach","state":"Karnataka","latitude":13.2041,"longitude":74.7400,"address":"Kaup, Udupi, Karnataka"},
  {"name":"Murudeshwar Beach","category":"beach","state":"Karnataka","latitude":14.0940,"longitude":74.4850,"address":"Murudeshwar, Uttara Kannada, Karnataka"},
  {"name":"Gokarna Om Beach","category":"beach","state":"Karnataka","latitude":14.5174,"longitude":74.3191,"address":"Gokarna, Uttara Kannada, Karnataka"},
  {"name":"Cherai Beach","category":"beach","state":"Kerala","latitude":10.1540,"longitude":76.1990,"address":"Kochi, Kerala"},
  {"name":"Tarkarli Beach","category":"beach","state":"Maharashtra","latitude":16.0342,"longitude":73.4941,"address":"Tarkarli, Sindhudurg, Maharashtra"},
  {"name":"Kashid Beach","category":"beach","state":"Maharashtra","latitude":18.4397,"longitude":72.9083,"address":"Kashid, Raigad, Maharashtra"},
  {"name":"Alibaug Beach","category":"beach","state":"Maharashtra","latitude":18.6410,"longitude":72.8722,"address":"Alibag, Raigad, Maharashtra"},
  {"name":"Ganpatipule Beach","category":"beach","state":"Maharashtra","latitude":17.1481,"longitude":73.2700,"address":"Ganpatipule, Ratnagiri, Maharashtra"},
  {"name":"Radhanagar Beach","category":"beach","state":"Andaman and Nicobar Islands","latitude":11.9833,"longitude":92.9833,"address":"Havelock Island, Andaman & Nicobar"},
  {"name":"Elephanta Beach","category":"beach","state":"Andaman and Nicobar Islands","latitude":12.0333,"longitude":93.0000,"address":"Havelock Island, Andaman & Nicobar"},

  {"name":"Taj Mahal Palace","category":"hotel","state":"Maharashtra","latitude":18.9220,"longitude":72.8336,"address":"Apollo Bandar, Colaba, Mumbai"},
  {"name":"The Oberoi Mumbai","category":"hotel","state":"Maharashtra","latitude":18.9275,"longitude":72.8204,"address":"Nariman Point, Mumbai"},
  {"name":"ITC Grand Chola","category":"hotel","state":"Tamil Nadu","latitude":13.0106,"longitude":80.2201,"address":"Guindy, Chennai"},
  {"name":"Taj Coromandel","category":"hotel","state":"Tamil Nadu","latitude":13.0580,"longitude":80.2496,"address":"Nungambakkam, Chennai"},
  {"name":"The Leela Palace Bengaluru","category":"hotel","state":"Karnataka","latitude":12.9603,"longitude":77.6486,"address":"Old Airport Road, Bengaluru"},
  {"name":"The Oberoi Bengaluru","category":"hotel","state":"Karnataka","latitude":12.9725,"longitude":77.6200,"address":"MG Road, Bengaluru"},
  {"name":"The Leela Palace New Delhi","category":"hotel","state":"Delhi","latitude":28.5697,"longitude":77.1915,"address":"Chanakyapuri, New Delhi"},
  {"name":"The Imperial New Delhi","category":"hotel","state":"Delhi","latitude":28.6266,"longitude":77.2167,"address":"Janpath, New Delhi"},
  {"name":"Rambagh Palace","category":"hotel","state":"Rajasthan","latitude":26.8938,"longitude":75.8034,"address":"Bhawani Singh Rd, Jaipur"},
  {"name":"Umaid Bhawan Palace","category":"hotel","state":"Rajasthan","latitude":26.2978,"longitude":73.0479,"address":"Circuit House Rd, Jodhpur"},
  {"name":"The Leela Palace Udaipur","category":"hotel","state":"Rajasthan","latitude":24.5787,"longitude":73.6855,"address":"Pichola, Udaipur"},
  {"name":"Taj Lake Palace","category":"hotel","state":"Rajasthan","latitude":24.5765,"longitude":73.6811,"address":"Lake Pichola, Udaipur"},
  {"name":"JW Marriott Kolkata","category":"hotel","state":"West Bengal","latitude":22.5448,"longitude":88.4073,"address":"EM Bypass, Kolkata"},
  {"name":"Taj Bengal","category":"hotel","state":"West Bengal","latitude":22.5383,"longitude":88.3315,"address":"Alipore, Kolkata"},
  {"name":"The Leela Goa","category":"hotel","state":"Goa","latitude":15.1590,"longitude":73.9490,"address":"Cavelossim, South Goa"},
  {"name":"Grand Hyatt Goa","category":"hotel","state":"Goa","latitude":15.4669,"longitude":73.8724,"address":"Bambolim, North Goa"},
  {"name":"The Lalit Great Eastern","category":"hotel","state":"West Bengal","latitude":22.5710,"longitude":88.3570,"address":"Kolkata"},
  {"name":"ITC Maurya","category":"hotel","state":"Delhi","latitude":28.5963,"longitude":77.1706,"address":"Diplomatic Enclave, New Delhi"},

  {"name":"Bukhara","category":"restaurant","state":"Delhi","latitude":28.5961,"longitude":77.1705,"address":"ITC Maurya, New Delhi"},
  {"name":"Karim's Jama Masjid","category":"restaurant","state":"Delhi","latitude":28.6505,"longitude":77.2335,"address":"Gali Kababian, Old Delhi"},
  {"name":"Parikrama The Revolving Restaurant","category":"restaurant","state":"Delhi","latitude":28.6327,"longitude":77.2191,"address":"Connaught Place, New Delhi"},
  {"name":"Dishoom Goa Shack","category":"restaurant","state":"Goa","latitude":15.5540,"longitude":73.7510,"address":"Baga, North Goa"},
  {"name":"Gunpowder Goa","category":"restaurant","state":"Goa","latitude":15.5960,"longitude":73.7465,"address":"Assagao, North Goa"},
  {"name":"Peter Cat","category":"restaurant","state":"West Bengal","latitude":22.5532,"longitude":88.3521,"address":"Park Street, Kolkata"},
  {"name":"6 Ballygunge Place","category":"restaurant","state":"West Bengal","latitude":22.5256,"longitude":88.3653,"address":"Ballygunge, Kolkata"},
  {"name":"Leopold Cafe","category":"restaurant","state":"Maharashtra","latitude":18.9225,"longitude":72.8327,"address":"Colaba Causeway, Mumbai"},
  {"name":"Britannia & Co.","category":"restaurant","state":"Maharashtra","latitude":18.9406,"longitude":72.8330,"address":"Ballard Estate, Mumbai"},
  {"name":"MTR Lalbagh","category":"restaurant","state":"Karnataka","latitude":12.9613,"longitude":77.5855,"address":"Lalbagh Rd, Bengaluru"},
  {"name":"Truffles","category":"restaurant","state":"Karnataka","latitude":12.9352,"longitude":77.6131,"address":"Koramangala, Bengaluru"},
  {"name":"Murugan Idli Shop","category":"restaurant","state":"Tamil Nadu","latitude":13.0565,"longitude":80.2559,"address":"T Nagar, Chennai"},
  {"name":"Ratna Cafe","category":"restaurant","state":"Tamil Nadu","latitude":13.0795,"longitude":80.2707,"address":"Triplicane, Chennai"},
  {"name":"Karavalli","category":"restaurant","state":"Karnataka","latitude":12.9691,"longitude":77.6187,"address":"Residency Rd, Bengaluru"},
  {"name":"Farzi Cafe","category":"restaurant","state":"Maharashtra","latitude":19.0688,"longitude":72.8774,"address":"BKC, Mumbai"},
  {"name":"Monkey Bar","category":"restaurant","state":"Karnataka","latitude":12.9717,"longitude":77.6400,"address":"Indiranagar, Bengaluru"},
  {"name":"Oh! Calcutta","category":"restaurant","state":"West Bengal","latitude":22.5726,"longitude":88.3639,"address":"Kolkata"},

  {"name":"Cubbon Park","category":"park","state":"Karnataka","latitude":12.9763,"longitude":77.5929,"address":"Kasturba Rd, Bengaluru"},
  {"name":"Lalbagh Botanical Garden","category":"park","state":"Karnataka","latitude":12.9507,"longitude":77.5848,"address":"Lalbagh, Bengaluru"},
  {"name":"Lodhi Gardens","category":"park","state":"Delhi","latitude":28.5933,"longitude":77.2197,"address":"Lodhi Estate, New Delhi"},
  {"name":"Deer Park","category":"park","state":"Delhi","latitude":28.5591,"longitude":77.1914,"address":"Hauz Khas, New Delhi"},
  {"name":"Hanging Garden","category":"park","state":"Maharashtra","latitude":18.9569,"longitude":72.8059,"address":"Malabar Hill, Mumbai"},
  {"name":"Sanjay Gandhi National Park","category":"park","state":"Maharashtra","latitude":19.2147,"longitude":72.9106,"address":"Borivali East, Mumbai"},
  {"name":"Eco Park","category":"park","state":"West Bengal","latitude":22.6190,"longitude":88.4747,"address":"New Town, Kolkata"},
  {"name":"Maidan","category":"park","state":"West Bengal","latitude":22.5496,"longitude":88.3526,"address":"Maidan, Kolkata"},
  {"name":"Semmozhi Poonga","category":"park","state":"Tamil Nadu","latitude":13.0526,"longitude":80.2432,"address":"Teynampet, Chennai"},
  {"name":"Guindy National Park","category":"park","state":"Tamil Nadu","latitude":13.0050,"longitude":80.2300,"address":"Guindy, Chennai"},

  {"name":"Rushikonda Sea View Hotel","category":"hotel","state":"Andhra Pradesh","latitude":17.7805,"longitude":83.3850,"address":"Beach Rd, Vizag"},
  {"name":"Hotel Puri Beach Resort","category":"hotel","state":"Odisha","latitude":19.8005,"longitude":85.8288,"address":"Puri Beach, Puri"},
  {"name":"The Park Visakhapatnam","category":"hotel","state":"Andhra Pradesh","latitude":17.7298,"longitude":83.3442,"address":"Beach Rd, Vizag"},
  {"name":"The Zuri White Sands","category":"hotel","state":"Goa","latitude":15.2598,"longitude":73.9384,"address":"Varca, South Goa"},
  {"name":"Novotel Goa Candolim","category":"hotel","state":"Goa","latitude":15.5181,"longitude":73.7737,"address":"Candolim, North Goa"},

  {"name":"Anjuna Beach Shack","category":"restaurant","state":"Goa","latitude":15.5860,"longitude":73.7440,"address":"Anjuna, North Goa"},
  {"name":"Fisherman's Wharf","category":"restaurant","state":"Goa","latitude":15.1520,"longitude":73.9496,"address":"Cavelossim, South Goa"},
  {"name":"Barbeque Nation Park Street","category":"restaurant","state":"West Bengal","latitude":22.5528,"longitude":88.3525,"address":"Park St, Kolkata"},
  {"name":"SodaBottleOpenerWala","category":"restaurant","state":"Maharashtra","latitude":18.9278,"longitude":72.8207,"address":"Nariman Point, Mumbai"},
  {"name":"Kesar Da Dhaba","category":"restaurant","state":"Punjab","latitude":31.6330,"longitude":74.8723,"address":"Amritsar, Punjab"},
  {"name":"Pal Dhaba","category":"restaurant","state":"Punjab","latitude":30.7333,"longitude":76.7794,"address":"Chandigarh"},

  {"name":"Vashi Mini Seashore","category":"beach","state":"Maharashtra","latitude":19.0655,"longitude":73.0129,"address":"Vashi, Navi Mumbai"},
  {"name":"Aksa Beach","category":"beach","state":"Maharashtra","latitude":19.1750,"longitude":72.7950,"address":"Malad, Mumbai"},
  {"name":"Uppada Beach","category":"beach","state":"Andhra Pradesh","latitude":17.0568,"longitude":82.3697,"address":"Uppada, Kakinada"},
  {"name":"Yarada Beach","category":"beach","state":"Andhra Pradesh","latitude":17.6500,"longitude":83.2667,"address":"Yarada, Vizag"},
  {"name":"Talasari Beach","category":"beach","state":"Odisha","latitude":21.6297,"longitude":87.4481,"address":"Baleswar, Odisha"},
  {"name":"Shankarpur Beach","category":"beach","state":"West Bengal","latitude":21.6589,"longitude":87.5863,"address":"Purba Medinipur, WB"},
  {"name":"Konark Beach","category":"beach","state":"Odisha","latitude":19.8970,"longitude":86.1111,"address":"Konark, Odisha"},

  {"name":"Hyatt Regency Chennai","category":"hotel","state":"Tamil Nadu","latitude":13.0341,"longitude":80.2437,"address":"Anna Salai, Chennai"},
  {"name":"Courtyard by Marriott Chennai","category":"hotel","state":"Tamil Nadu","latitude":13.0420,"longitude":80.2460,"address":"Anna Salai, Chennai"},
  {"name":"The Park Chennai","category":"hotel","state":"Tamil Nadu","latitude":13.0581,"longitude":80.2500,"address":"Nungambakkam, Chennai"},
  {"name":"Raintree St Mary's Road","category":"hotel","state":"Tamil Nadu","latitude":13.0299,"longitude":80.2503,"address":"Alwarpet, Chennai"},

  {"name":"Anand Sweets & Savouries","category":"restaurant","state":"Karnataka","latitude":12.9733,"longitude":77.6110,"address":"MG Road, Bengaluru"},
  {"name":"Veena Stores","category":"restaurant","state":"Karnataka","latitude":13.0122,"longitude":77.5707,"address":"Malleshwaram, Bengaluru"},
  {"name":"Chulha Chauki Da Dhaba","category":"restaurant","state":"Karnataka","latitude":12.9271,"longitude":77.5909,"address":"Koramangala, Bengaluru"},
  {"name":"Copper Chimney BKC","category":"restaurant","state":"Maharashtra","latitude":19.0679,"longitude":72.8697,"address":"BKC, Mumbai"},

  {"name":"Rock Garden","category":"park","state":"Chandigarh","latitude":30.7525,"longitude":76.8083,"address":"Sector 1, Chandigarh"},
  {"name":"Sukhna Lake Park","category":"park","state":"Chandigarh","latitude":30.7421,"longitude":76.8188,"address":"Sukhna Lake, Chandigarh"},
  {"name":"Indroda Nature Park","category":"park","state":"Gujarat","latitude":23.1251,"longitude":72.6285,"address":"Gandhinagar, Gujarat"},
  {"name":"Sayaji Baug","category":"park","state":"Gujarat","latitude":22.3072,"longitude":73.1812,"address":"Vadodara, Gujarat"},
  {"name":"KBR National Park","category":"park","state":"Telangana","latitude":17.4243,"longitude":78.4202,"address":"Jubilee Hills, Hyderabad"},
  {"name":"NTR Gardens","category":"park","state":"Telangana","latitude":17.4129,"longitude":78.4690,"address":"Hussain Sagar, Hyderabad"},

  {"name":"Cherating Beach Cafe","category":"restaurant","state":"Kerala","latitude":9.9391,"longitude":76.2597,"address":"Kochi, Kerala"},
  {"name":"Paragon Restaurant","category":"restaurant","state":"Kerala","latitude":11.2588,"longitude":75.7804,"address":"Calicut, Kerala"},
  {"name":"Fort House Restaurant","category":"restaurant","state":"Kerala","latitude":9.9663,"longitude":76.2425,"address":"Fort Kochi, Kerala"},
  {"name":"Salt Water Cafe","category":"restaurant","state":"Maharashtra","latitude":19.0640,"longitude":72.8250,"address":"Bandra, Mumbai"},

  {"name":"Nehru Park","category":"park","state":"Delhi","latitude":28.5956,"longitude":77.1913,"address":"Chanakyapuri, New Delhi"},
  {"name":"Five Gardens","category":"park","state":"Maharashtra","latitude":19.0392,"longitude":72.8427,"address":"Matunga, Mumbai"},
  {"name":"Rabindra Sarobar","category":"park","state":"West Bengal","latitude":22.5120,"longitude":88.3466,"address":"Lake Gardens, Kolkata"},
  {"name":"Central Park Salt Lake","category":"park","state":"West Bengal","latitude":22.5850,"longitude":88.4156,"address":"Sector I, Bidhannagar"},

  {"name":"Benaulim Beach","category":"beach","state":"Goa","latitude":15.2486,"longitude":73.9182,"address":"Benaulim, South Goa"},
  {"name":"Cavelossim Beach","category":"beach","state":"Goa","latitude":15.1724,"longitude":73.9437,"address":"Cavelossim, South Goa"},
  {"name":"Morjim Beach","category":"beach","state":"Goa","latitude":15.6282,"longitude":73.7394,"address":"Morjim, North Goa"},
  {"name":"Agonda Beach","category":"beach","state":"Goa","latitude":15.0137,"longitude":73.9862,"address":"Agonda, South Goa"},

  {"name":"Hotel Sea Princess","category":"hotel","state":"Maharashtra","latitude":19.1036,"longitude":72.8232,"address":"Juhu Tara Rd, Mumbai"},
  {"name":"Sun N Sand Mumbai","category":"hotel","state":"Maharashtra","latitude":19.1098,"longitude":72.8263,"address":"Juhu Beach, Mumbai"},
  {"name":"Taj Lands End","category":"hotel","state":"Maharashtra","latitude":19.0437,"longitude":72.8178,"address":"Bandra West, Mumbai"},
  {"name":"Trident Nariman Point","category":"hotel","state":"Maharashtra","latitude":18.9271,"longitude":72.8205,"address":"Nariman Point, Mumbai"}
]
